[
{"city": "New York", "endTime": "09:00AM", "description": "Cool teenagers staying up all night, making art in a hotel lobby. ", "title": "Teen Art Salon Slumber Party", "dateFrom": "25/01/2018", "zipCode": "10001", "contactEmail": "no-reply@acehotel.com", "state": "NY", "street": " 20 W 29th Street", "eventTimeZone": "America/New_York", "location": "Lobby", "startTime": "09:00PM", "In_group_id": " ", "organization": "ACE HOTEL", "eventWebsite": "https://www.acehotel.com/calendar/newyork/teen-art-salon-slumber-party", "eventImage": "https://ace_hotel_dev.s3.amazonaws.com/images/NYC-2018-LOBBY-TEEN_ART_SALON.jpg", "ticketUrl": ""},
{"city": "New York", "endTime": "02:00AM", "description": "A member of NYC's artist-oriented Seagull Salon spin on Friday nights this January.", "title": "Lobby Nights: Seagull Salon DJs", "dateFrom": "26/01/2018", "zipCode": "10001", "contactEmail": "no-reply@acehotel.com", "state": "NY", "street": " 20 W 29th Street", "eventTimeZone": "America/New_York", "location": "Lobby", "startTime": "08:00PM", "In_group_id": " ", "organization": "ACE HOTEL", "eventWebsite": "https://www.acehotel.com/calendar/newyork/lobby-nights-seagull-salon-012618", "eventImage": "https://ace_hotel_dev.s3.amazonaws.com/images/NYC-2018-LOBBY_NIGHTS-JAN-SEAGULL-01.jpg", "ticketUrl": ""},
{"city": "New York", "endTime": "03:00AM", "description": "DJ Prestige rescues forgotten funk, soul, jazz, reggae, hip hop records for a Saturday night live mix.", "title": "LOBBY NIGHTS: DJ PRESTIGE", "dateFrom": "27/01/2018", "zipCode": "10001", "contactEmail": "no-reply@acehotel.com", "state": "NY", "street": " 20 W 29th Street", "eventTimeZone": "America/New_York", "location": "Lobby", "startTime": "10:00PM", "In_group_id": " ", "organization": "ACE HOTEL", "eventWebsite": "https://www.acehotel.com/calendar/newyork/lobbynights-dj-prestige-012718", "eventImage": "https://ace_hotel_dev.s3.amazonaws.com/images/NYC-2018-LOBBY_NIGHTS-DJ_PRESTIGE.JPG", "ticketUrl": ""},
{"city": "New York", "endTime": "12:00PM", "description": "A new guest artist spends the night with us each Sunday this January, curated by National Sawdust.", "title": "Ace AIR: Zach Fredman", "dateFrom": "28/01/2018", "zipCode": "10001", "contactEmail": "no-reply@acehotel.com", "state": "NY", "street": " 20 W 29th Street", "eventTimeZone": "America/New_York", "location": "", "startTime": "03:00PM", "In_group_id": " ", "organization": "ACE HOTEL", "eventWebsite": "https://www.acehotel.com/calendar/misc/ace-air-national-sawdust-zach-fredman", "eventImage": "https://ace_hotel_dev.s3.amazonaws.com/images/Zach-Fredman-pic.jpg", "ticketUrl": ""},
{"city": "New York", "endTime": "10:00PM", "description": "We're celebrating \"Motherland\" with readings by special guests from the  n+1 community.", "title": "n+1 Issue 30 Reading Party: Motherland", "dateFrom": "30/01/2018", "zipCode": "10001", "contactEmail": "no-reply@acehotel.com", "state": "NY", "street": " 20 W 29th Street", "eventTimeZone": "America/New_York", "location": "Liberty Hall", "startTime": "07:00PM", "In_group_id": " ", "organization": "ACE HOTEL", "eventWebsite": "https://www.acehotel.com/calendar/newyork/nplus1-motherland", "eventImage": "https://ace_hotel_dev.s3.amazonaws.com/images/NYC-2018-NPLUSONE-30JAN2018.jpg", "ticketUrl": ""},
{"city": "New York", "endTime": "11:00PM", "description": "A survey of works from all eras of the Texas-based artist's career, with a special focus on historical subjects and individuals.", "title": "Ike Morgan: History Lesson", "dateFrom": "05/01/2018", "zipCode": "10001", "contactEmail": "no-reply@acehotel.com", "state": "NY", "street": " 20 W 29th Street", "eventTimeZone": "America/New_York", "location": "Gallery", "startTime": "12:00PM", "In_group_id": " ", "organization": "ACE HOTEL", "eventWebsite": "https://www.acehotel.com/calendar/newyork/ike-morgan-history-lession", "eventImage": "https://ace_hotel_dev.s3.amazonaws.com/images/NYC-2018-GALLERY-JAN-MORGAN-TITLE.png", "ticketUrl": ""},
{"city": "New York", "endTime": "12:00AM", "description": "Revered New York City DJ and producer Justin Strauss plays records every Thursday in April.", "title": "Lobby Nights: JUSTIN STRAUSS (DJ)", "dateFrom": "01/02/2018", "zipCode": "10001", "contactEmail": "no-reply@acehotel.com", "state": "NY", "street": " 20 W 29th Street", "eventTimeZone": "America/New_York", "location": "Lobby", "startTime": "08:00PM", "In_group_id": " ", "organization": "ACE HOTEL", "eventWebsite": "https://www.acehotel.com/calendar/newyork/lobbynights-justin-strauss-dj-020118", "eventImage": "https://ace_hotel_dev.s3.amazonaws.com/images/Justin-Strauss-03.jpg", "ticketUrl": ""},
{"city": "New York", "endTime": "02:00AM", "description": "Special pals o' Ace, Ground Control's one of the best boutique artist booking agencies around. They DJ, too.", "title": "Lobby Nights: Ground Control Touring", "dateFrom": "02/02/2018", "zipCode": "10001", "contactEmail": "no-reply@acehotel.com", "state": "NY", "street": " 20 W 29th Street", "eventTimeZone": "America/New_York", "location": "Lobby", "startTime": "08:00PM", "In_group_id": " ", "organization": "ACE HOTEL", "eventWebsite": "https://www.acehotel.com/calendar/newyork/lobbynights-ground-control-020218", "eventImage": "https://ace_hotel_dev.s3.amazonaws.com/images/NYC-2018-LOBBY_NIGHTS-GROUND_CONTROL.jpg", "ticketUrl": ""},
{"city": "New York", "endTime": "03:00AM", "description": "CHERYL is an art + party collective established in Brooklyn in 2008 and will ruin your life.", "title": "Lobby Nights: CHERYL", "dateFrom": "03/02/2018", "zipCode": "10001", "contactEmail": "no-reply@acehotel.com", "state": "NY", "street": " 20 W 29th Street", "eventTimeZone": "America/New_York", "location": "Lobby", "startTime": "10:00PM", "In_group_id": " ", "organization": "ACE HOTEL", "eventWebsite": "https://www.acehotel.com/calendar/newyork/lobbynights-cheryl-020317", "eventImage": "https://ace_hotel_dev.s3.amazonaws.com/images/NYC-2018-LOBBY_NIGHTS-CHERYL-01.png", "ticketUrl": ""},
{"city": "New York", "endTime": "10:00PM", "description": "An immersive play on storytelling, our sense of self, and being a stranger in a strange land. ", "title": "Ace AIR: Not From Here \u2014 A Sea Dog Theater Production", "dateFrom": "04/02/2018", "zipCode": "10001", "contactEmail": "no-reply@acehotel.com", "state": "NY", "street": " 20 W 29th Street", "eventTimeZone": "America/New_York", "location": "", "startTime": "07:00PM", "In_group_id": " ", "organization": "ACE HOTEL", "eventWebsite": "https://www.acehotel.com/calendar/newyork/ace-air-sea-dog-theater-not-from-here-020418", "eventImage": "https://ace_hotel_dev.s3.amazonaws.com/images/NYC-2018-AIR-FEB-SEA_DOG-NOT_FROM_HERE-POSTER-05.jpg", "ticketUrl": "http://www.seadogtheater.org/notfromhere"},
{"city": "New York", "endTime": "10:00PM", "description": "An immersive play on storytelling, our sense of self, and being a stranger in a strange land. ", "title": "Ace AIR: Not From Here \u2014 A Sea Dog Theater Production", "dateFrom": "04/02/2018", "zipCode": "10001", "contactEmail": "no-reply@acehotel.com", "state": "NY", "street": " 20 W 29th Street", "eventTimeZone": "America/New_York", "location": "", "startTime": "09:00PM", "In_group_id": " ", "organization": "ACE HOTEL", "eventWebsite": "https://www.acehotel.com/calendar/newyork/ace-air-sea-dog-theater-not-from-here-020418-9pm", "eventImage": "https://ace_hotel_dev.s3.amazonaws.com/images/NYC-2018-AIR-FEB-SEA_DOG-NOT_FROM_HERE-POSTER-05.jpg", "ticketUrl": "http://www.seadogtheater.org/notfromhere"},
{"city": "New York", "endTime": "07:30PM", "description": "The premiere of Art21's newest New York Close Up film, and a conversation with a fantastic artist.", "title": "Art21 Film Premiere and Conversation with Artist Doreen Garner", "dateFrom": "05/02/2018", "zipCode": "10001", "contactEmail": "no-reply@acehotel.com", "state": "NY", "street": " 20 W 29th Street", "eventTimeZone": "America/New_York", "location": "Liberty Hall", "startTime": "06:00PM", "In_group_id": " ", "organization": "ACE HOTEL", "eventWebsite": "https://www.acehotel.com/calendar/newyork/art21-doreen-garner", "eventImage": "https://ace_hotel_dev.s3.amazonaws.com/images/NYC-2018-ART21-DOREEN_GARNER-05FEB2018.png", "ticketUrl": ""},
{"city": "New York", "endTime": "11:00PM", "description": "", "title": "Candace Williams: Spells for Black Wizards (Launch Party)", "dateFrom": "05/02/2018", "zipCode": "10001", "contactEmail": "no-reply@acehotel.com", "state": "NY", "street": " 20 W 29th Street", "eventTimeZone": "America/New_York", "location": "Liberty Hall", "startTime": "08:00PM", "In_group_id": " ", "organization": "ACE HOTEL", "eventWebsite": "https://www.acehotel.com/calendar/newyork/candace-williams-spells-black-wizards", "eventImage": "https://ace_hotel_dev.s3.amazonaws.com/images/NYC-2018-SPELLS_FOR_BLACK_WIZARDS.png", "ticketUrl": ""},
{"city": "New York", "endTime": "09:00PM", "description": "This NYFW, The Library, Slow Factory, MIT Media Lab, and Ace Hotel invite you to a day of learning and discussion.", "title": "Study Hall: Sustainability, Human Rights and Technology", "dateFrom": "07/02/2018", "zipCode": "10001", "contactEmail": "no-reply@acehotel.com", "state": "NY", "street": " 20 W 29th Street", "eventTimeZone": "America/New_York", "location": "Liberty Hall", "startTime": "04:00PM", "In_group_id": " ", "organization": "ACE HOTEL", "eventWebsite": "https://www.acehotel.com/calendar/newyork/study-hall-sustainability-human-rights-and-technology", "eventImage": "https://ace_hotel_dev.s3.amazonaws.com/images/NYC-2018-NYFW-MIT-07FEB2018.png", "ticketUrl": "https://www.eventbrite.com/e/the-library-study-hall-sustainability-technology-human-rights-tickets-42186891127#tickets"},
{"city": "New York", "endTime": "12:00AM", "description": "Celebrating a decade of progressive, disruptive publishing.", "title": "No Dear Magazine's 10 Year Party", "dateFrom": "09/02/2018", "zipCode": "10001", "contactEmail": "no-reply@acehotel.com", "state": "NY", "street": " 20 W 29th Street", "eventTimeZone": "America/New_York", "location": "Liberty Hall", "startTime": "07:00PM", "In_group_id": " ", "organization": "ACE HOTEL", "eventWebsite": "https://www.acehotel.com/calendar/newyork/no-dear-magazine-020918", "eventImage": "https://ace_hotel_dev.s3.amazonaws.com/images/NYC-2018-NO_DEAR_MAGAZINE-09FEB2018.jpg", "ticketUrl": ""},
{"city": "New York", "endTime": "02:00AM", "description": "Special pals o' Ace, Ground Control's one of the best boutique artist booking agencies around. They DJ, too.", "title": "Lobby Nights: Ground Control Touring", "dateFrom": "09/02/2018", "zipCode": "10001", "contactEmail": "no-reply@acehotel.com", "state": "NY", "street": " 20 W 29th Street", "eventTimeZone": "America/New_York", "location": "Lobby", "startTime": "08:00PM", "In_group_id": " ", "organization": "ACE HOTEL", "eventWebsite": "https://www.acehotel.com/calendar/newyork/lobbynights-ground-control-020918", "eventImage": "https://ace_hotel_dev.s3.amazonaws.com/images/NYC-2018-LOBBY_NIGHTS-GROUND_CONTROL.jpg", "ticketUrl": ""},
{"city": "New York", "endTime": "03:00AM", "description": "CHERYL is an art + party collective established in Brooklyn in 2008 and will ruin your life.", "title": "Lobby Nights: CHERYL", "dateFrom": "10/02/2018", "zipCode": "10001", "contactEmail": "no-reply@acehotel.com", "state": "NY", "street": " 20 W 29th Street", "eventTimeZone": "America/New_York", "location": "Lobby", "startTime": "10:00PM", "In_group_id": " ", "organization": "ACE HOTEL", "eventWebsite": "https://www.acehotel.com/calendar/newyork/lobbynights-cheryl-021017", "eventImage": "https://ace_hotel_dev.s3.amazonaws.com/images/NYC-2018-LOBBY_NIGHTS-CHERYL-02.png", "ticketUrl": ""},
{"city": "New York", "endTime": "10:00PM", "description": "An immersive play on storytelling, our sense of self, and being a stranger in a strange land. ", "title": "Ace AIR: Not From Here \u2014 A Sea Dog Theater Production", "dateFrom": "11/02/2018", "zipCode": "10001", "contactEmail": "no-reply@acehotel.com", "state": "NY", "street": " 20 W 29th Street", "eventTimeZone": "America/New_York", "location": "", "startTime": "07:00PM", "In_group_id": " ", "organization": "ACE HOTEL", "eventWebsite": "https://www.acehotel.com/calendar/newyork/ace-air-sea-dog-theater-not-from-here-021118-7pm", "eventImage": "https://ace_hotel_dev.s3.amazonaws.com/images/NYC-2018-AIR-FEB-SEA_DOG-NOT_FROM_HERE-POSTER-04.jpg", "ticketUrl": "http://www.seadogtheater.org/notfromhere"},
{"city": "New York", "endTime": "10:00PM", "description": "An immersive play on storytelling, our sense of self, and being a stranger in a strange land. ", "title": "Ace AIR: Not From Here \u2014 A Sea Dog Theater Production", "dateFrom": "11/02/2018", "zipCode": "10001", "contactEmail": "no-reply@acehotel.com", "state": "NY", "street": " 20 W 29th Street", "eventTimeZone": "America/New_York", "location": "", "startTime": "09:00PM", "In_group_id": " ", "organization": "ACE HOTEL", "eventWebsite": "https://www.acehotel.com/calendar/newyork/ace-air-sea-dog-theater-not-from-here-021118-9pm", "eventImage": "https://ace_hotel_dev.s3.amazonaws.com/images/NYC-2018-AIR-FEB-SEA_DOG-NOT_FROM_HERE-POSTER-04.jpg", "ticketUrl": "http://www.seadogtheater.org/notfromhere"},
{"city": "New York", "endTime": "12:00AM", "description": "Revered New York City DJ and producer Justin Strauss plays records every Thursday in April.", "title": "Lobby Nights: JUSTIN STRAUSS (DJ)", "dateFrom": "15/02/2018", "zipCode": "10001", "contactEmail": "no-reply@acehotel.com", "state": "NY", "street": " 20 W 29th Street", "eventTimeZone": "America/New_York", "location": "Lobby", "startTime": "08:00PM", "In_group_id": " ", "organization": "ACE HOTEL", "eventWebsite": "https://www.acehotel.com/calendar/newyork/lobbynights-justin-strauss-021518", "eventImage": "https://ace_hotel_dev.s3.amazonaws.com/images/Justin-Strauss-04.jpg", "ticketUrl": ""},
{"city": "New York", "endTime": "02:00AM", "description": "Special pals o' Ace, Ground Control's one of the best boutique artist booking agencies around. They DJ, too.", "title": "Lobby Nights: Ground Control Touring", "dateFrom": "16/02/2018", "zipCode": "10001", "contactEmail": "no-reply@acehotel.com", "state": "NY", "street": " 20 W 29th Street", "eventTimeZone": "America/New_York", "location": "Lobby", "startTime": "08:00PM", "In_group_id": " ", "organization": "ACE HOTEL", "eventWebsite": "https://www.acehotel.com/calendar/newyork/lobbynights-ground-control-021618", "eventImage": "https://ace_hotel_dev.s3.amazonaws.com/images/NYC-2018-LOBBY_NIGHTS-GROUND_CONTROL.jpg", "ticketUrl": ""},
{"city": "New York", "endTime": "03:00AM", "description": "CHERYL is an art + party collective established in Brooklyn in 2008 and will ruin your life.", "title": "Lobby Nights: CHERYL (Sarah Van Buren)", "dateFrom": "17/02/2018", "zipCode": "10001", "contactEmail": "no-reply@acehotel.com", "state": "NY", "street": " 20 W 29th Street", "eventTimeZone": "America/New_York", "location": "Lobby", "startTime": "10:00PM", "In_group_id": " ", "organization": "ACE HOTEL", "eventWebsite": "https://www.acehotel.com/calendar/newyork/lobbynights-cheryl-021718", "eventImage": "https://ace_hotel_dev.s3.amazonaws.com/images/NYC-2018-LOBBY_NIGHTS-SARAH_VAN_BUREN.jpg", "ticketUrl": ""},
{"city": "New York", "endTime": "10:00PM", "description": "An immersive play on storytelling, our sense of self, and being a stranger in a strange land. ", "title": "Ace AIR: Not From Here \u2014 A Sea Dog Theater Production", "dateFrom": "18/02/2018", "zipCode": "10001", "contactEmail": "no-reply@acehotel.com", "state": "NY", "street": " 20 W 29th Street", "eventTimeZone": "America/New_York", "location": "", "startTime": "07:00PM", "In_group_id": " ", "organization": "ACE HOTEL", "eventWebsite": "https://www.acehotel.com/calendar/newyork/ace-air-sea-dog-theater-not-from-here-021818-7pm", "eventImage": "https://ace_hotel_dev.s3.amazonaws.com/images/NYC-2018-AIR-FEB-SEA_DOG-NOT_FROM_HERE-POSTER-03.jpg", "ticketUrl": "http://www.seadogtheater.org/notfromhere"},
{"city": "New York", "endTime": "10:00PM", "description": "An immersive play on storytelling, our sense of self, and being a stranger in a strange land. ", "title": "Ace AIR: Not From Here \u2014 A Sea Dog Theater Production", "dateFrom": "18/02/2018", "zipCode": "10001", "contactEmail": "no-reply@acehotel.com", "state": "NY", "street": " 20 W 29th Street", "eventTimeZone": "America/New_York", "location": "", "startTime": "09:00PM", "In_group_id": " ", "organization": "ACE HOTEL", "eventWebsite": "https://www.acehotel.com/calendar/newyork/ace-air-sea-dog-theater-not-from-here-021818-9pm", "eventImage": "https://ace_hotel_dev.s3.amazonaws.com/images/NYC-2018-AIR-FEB-SEA_DOG-NOT_FROM_HERE-POSTER-03.jpg", "ticketUrl": "http://www.seadogtheater.org/notfromhere"},
{"city": "New York", "endTime": "01:00AM", "description": "A household name within New York City\u2019s LGBTQ nightlife community, and one of our favorites.", "title": "Lobby Nights: Robi D Light", "dateFrom": "21/02/2018", "zipCode": "10001", "contactEmail": "no-reply@acehotel.com", "state": "NY", "street": " 20 W 29th Street", "eventTimeZone": "America/New_York", "location": "Lobby", "startTime": "08:00PM", "In_group_id": " ", "organization": "ACE HOTEL", "eventWebsite": "https://www.acehotel.com/calendar/newyork/lobbynights-robi-d-light-012118", "eventImage": "https://ace_hotel_dev.s3.amazonaws.com/images/NYC-2017-LOBBY_NIGHTS-ROBIDLIGHT.jpg", "ticketUrl": ""},
{"city": "New York", "endTime": "12:00AM", "description": "Revered New York City DJ and producer Justin Strauss plays records every Thursday in April.", "title": "Lobby Nights: JUSTIN STRAUSS (DJ)", "dateFrom": "22/02/2018", "zipCode": "10001", "contactEmail": "no-reply@acehotel.com", "state": "NY", "street": " 20 W 29th Street", "eventTimeZone": "America/New_York", "location": "Lobby", "startTime": "08:00PM", "In_group_id": " ", "organization": "ACE HOTEL", "eventWebsite": "https://www.acehotel.com/calendar/newyork/lobbynights-justin-strauss-022218", "eventImage": "https://ace_hotel_dev.s3.amazonaws.com/images/Justin-Strauss-01.jpg", "ticketUrl": ""},
{"city": "New York", "endTime": "02:00AM", "description": "Special pals o' Ace, Ground Control's one of the best boutique artist booking agencies around. They DJ, too.", "title": "Lobby Nights: Ground Control Touring", "dateFrom": "23/02/2018", "zipCode": "10001", "contactEmail": "no-reply@acehotel.com", "state": "NY", "street": " 20 W 29th Street", "eventTimeZone": "America/New_York", "location": "Lobby", "startTime": "08:00PM", "In_group_id": " ", "organization": "ACE HOTEL", "eventWebsite": "https://www.acehotel.com/calendar/newyork/lobbynights-ground-control-022318", "eventImage": "https://ace_hotel_dev.s3.amazonaws.com/images/NYC-2018-LOBBY_NIGHTS-GROUND_CONTROL.jpg", "ticketUrl": ""},
{"city": "New York", "endTime": "03:00AM", "description": "CHERYL is an art + party collective established in Brooklyn in 2008 and will ruin your life.", "title": "Lobby Nights: CHERYL", "dateFrom": "24/02/2018", "zipCode": "10001", "contactEmail": "no-reply@acehotel.com", "state": "NY", "street": " 20 W 29th Street", "eventTimeZone": "America/New_York", "location": "Lobby", "startTime": "10:00PM", "In_group_id": " ", "organization": "ACE HOTEL", "eventWebsite": "https://www.acehotel.com/calendar/newyork/lobbynights-cheryl-022417", "eventImage": "https://ace_hotel_dev.s3.amazonaws.com/images/NYC-2018-LOBBY_NIGHTS-CHERYL-03.jpg", "ticketUrl": ""},
{"city": "New York", "endTime": "08:00PM", "description": "An immersive play on storytelling, our sense of self, and being a stranger in a strange land. ", "title": "Ace AIR: Not From Here \u2014 A Sea Dog Theater Production", "dateFrom": "25/02/2018", "zipCode": "10001", "contactEmail": "no-reply@acehotel.com", "state": "NY", "street": " 20 W 29th Street", "eventTimeZone": "America/New_York", "location": "", "startTime": "07:00PM", "In_group_id": " ", "organization": "ACE HOTEL", "eventWebsite": "https://www.acehotel.com/calendar/newyork/ace-air-sea-dog-theater-not-from-here-022518-7pm", "eventImage": "https://ace_hotel_dev.s3.amazonaws.com/images/NYC-2018-AIR-FEB-SEA_DOG-NOT_FROM_HERE-POSTER-01.jpg", "ticketUrl": "http://www.seadogtheater.org/notfromhere"},
{"city": "New York", "endTime": "10:00PM", "description": "An immersive play on storytelling, our sense of self, and being a stranger in a strange land. ", "title": "Ace AIR: Not From Here \u2014 A Sea Dog Theater Production", "dateFrom": "25/02/2018", "zipCode": "10001", "contactEmail": "no-reply@acehotel.com", "state": "NY", "street": " 20 W 29th Street", "eventTimeZone": "America/New_York", "location": "", "startTime": "09:00PM", "In_group_id": " ", "organization": "ACE HOTEL", "eventWebsite": "https://www.acehotel.com/calendar/newyork/ace-air-sea-dog-theater-not-from-here-022518-9pm", "eventImage": "https://ace_hotel_dev.s3.amazonaws.com/images/NYC-2018-AIR-FEB-SEA_DOG-NOT_FROM_HERE-POSTER-01.jpg", "ticketUrl": "http://www.seadogtheater.org/notfromhere"},
{"city": "New York", "endTime": "08:00PM", "description": "A display of work by American Artist, in conjunction with their first solo exhibition in New York, \"Black Gooey Universe\" \u2014on view at HOUSING this January and February.", "title": "Gallery Annex: American Artist", "dateFrom": "08/02/2018", "zipCode": "10001", "contactEmail": "no-reply@acehotel.com", "state": "NY", "street": " 20 W 29th Street", "eventTimeZone": "America/New_York", "location": "Lobby", "startTime": "07:00PM", "In_group_id": " ", "organization": "ACE HOTEL", "eventWebsite": "https://www.acehotel.com/calendar/newyork/gallery-annex-housing-american-artist", "eventImage": "https://ace_hotel_dev.s3.amazonaws.com/images/NYC-2018-ANNEX-FEB-HOUSING-AMERICAN_ARTIST.jpg", "ticketUrl": ""},
{"city": "New York", "endTime": "11:00PM", "description": "A month-long exhibition exploring the relationships between subculture, mass media, and various modes of cultural indoctrination.", "title": "HOUSING presents: Hard Feels", "dateFrom": "08/02/2018", "zipCode": "10001", "contactEmail": "no-reply@acehotel.com", "state": "NY", "street": " 20 W 29th Street", "eventTimeZone": "America/New_York", "location": "Gallery", "startTime": "07:00PM", "In_group_id": " ", "organization": "ACE HOTEL", "eventWebsite": "https://www.acehotel.com/calendar/newyork/housing-hard-feels", "eventImage": "https://ace_hotel_dev.s3.amazonaws.com/images/NYC-2018-GALLERY-FEB-HARD_FEELS.png", "ticketUrl": ""},
{"city": "New York", "endTime": "02:00AM", "description": "DJ Michael Cavadias \u2014a downtown nightlife staple\u2014 brings his eclectic mix every Friday night this month.", "title": "Lobby Nights: DJ MICHAEL CAVADIAS", "dateFrom": "01/03/2018", "zipCode": "10001", "contactEmail": "no-reply@acehotel.com", "state": "NY", "street": " 20 W 29th Street", "eventTimeZone": "America/New_York", "location": "Lobby", "startTime": "08:00PM", "In_group_id": " ", "organization": "ACE HOTEL", "eventWebsite": "https://www.acehotel.com/calendar/newyork/lobbynights-dj-michael-cavadias-030118", "eventImage": "https://ace_hotel_dev.s3.amazonaws.com/images/NYC-LOBBYNIGHT-2015-MICHAELCAVADIAS-02.jpg", "ticketUrl": ""},
{"city": "New York", "endTime": "03:00AM", "description": "A crowd-reading master and rocker of international dance floors for almost two decades. Every Saturday this March.", "title": "Lobby Nights: Everybody Random with DJ Rimarkable", "dateFrom": "03/03/2018", "zipCode": "10001", "contactEmail": "no-reply@acehotel.com", "state": "NY", "street": " 20 W 29th Street", "eventTimeZone": "America/New_York", "location": "Lobby", "startTime": "10:00PM", "In_group_id": " ", "organization": "ACE HOTEL", "eventWebsite": "https://www.acehotel.com/calendar/newyork/lobbynights-everybody-random-030318", "eventImage": "https://ace_hotel_dev.s3.amazonaws.com/images/NYC-2018-LOBBY_NIGHTS-RIMARKABLE-01.jpg", "ticketUrl": ""},
{"city": "New York", "endTime": "02:00AM", "description": "DJ Michael Cavadias \u2014a downtown nightlife staple\u2014 brings his eclectic mix every Friday night this month.", "title": "Lobby Nights: DJ MICHAEL CAVADIAS", "dateFrom": "08/03/2018", "zipCode": "10001", "contactEmail": "no-reply@acehotel.com", "state": "NY", "street": " 20 W 29th Street", "eventTimeZone": "America/New_York", "location": "Lobby", "startTime": "08:00PM", "In_group_id": " ", "organization": "ACE HOTEL", "eventWebsite": "https://www.acehotel.com/calendar/newyork/lobbynights-dj-michael-cavadias-030818", "eventImage": "https://ace_hotel_dev.s3.amazonaws.com/images/NYC-LOBBYNIGHT-2015-MICHAELCAVADIAS-03.jpg", "ticketUrl": ""},
{"city": "New York", "endTime": "03:00AM", "description": "A crowd-reading master and rocker of international dance floors for almost two decades. Every Saturday this March.", "title": "Lobby Nights: Everybody Random with DJ Rimarkable", "dateFrom": "10/03/2018", "zipCode": "10001", "contactEmail": "no-reply@acehotel.com", "state": "NY", "street": " 20 W 29th Street", "eventTimeZone": "America/New_York", "location": "Lobby", "startTime": "10:00PM", "In_group_id": " ", "organization": "ACE HOTEL", "eventWebsite": "https://www.acehotel.com/calendar/newyork/lobbynights-everybody-random-031018", "eventImage": "https://ace_hotel_dev.s3.amazonaws.com/images/NYC-2018-LOBBY_NIGHTS-RIMARKABLE-02.JPG", "ticketUrl": ""},
{"city": "New York", "endTime": "02:00AM", "description": "DJ Michael Cavadias \u2014a downtown nightlife staple\u2014 brings his eclectic mix every Friday night this month.", "title": "Lobby Nights: DJ MICHAEL CAVADIAS", "dateFrom": "15/03/2018", "zipCode": "10001", "contactEmail": "no-reply@acehotel.com", "state": "NY", "street": " 20 W 29th Street", "eventTimeZone": "America/New_York", "location": "Lobby", "startTime": "08:00PM", "In_group_id": " ", "organization": "ACE HOTEL", "eventWebsite": "https://www.acehotel.com/calendar/newyork/lobbynights-dj-michael-cavadias-031518", "eventImage": "https://ace_hotel_dev.s3.amazonaws.com/images/NYC-LOBBYNIGHT-2015-MICHAELCAVADIAS-03.jpg", "ticketUrl": ""},
{"city": "New York", "endTime": "03:00AM", "description": "A crowd-reading master and rocker of international dance floors for almost two decades. Every Saturday this March.", "title": "Lobby Nights: Everybody Random with DJ Rimarkable", "dateFrom": "17/03/2018", "zipCode": "10001", "contactEmail": "no-reply@acehotel.com", "state": "NY", "street": " 20 W 29th Street", "eventTimeZone": "America/New_York", "location": "Lobby", "startTime": "10:00PM", "In_group_id": " ", "organization": "ACE HOTEL", "eventWebsite": "https://www.acehotel.com/calendar/newyork/lobbynights-everybody-random-031718", "eventImage": "https://ace_hotel_dev.s3.amazonaws.com/images/NYC-2018-LOBBY_NIGHTS-RIMARKABLE-01.jpg", "ticketUrl": ""},
{"city": "New York", "endTime": "02:00AM", "description": "DJ Michael Cavadias \u2014a downtown nightlife staple\u2014 brings his eclectic mix every Friday night this month.", "title": "Lobby Nights: DJ MICHAEL CAVADIAS", "dateFrom": "22/03/2018", "zipCode": "10001", "contactEmail": "no-reply@acehotel.com", "state": "NY", "street": " 20 W 29th Street", "eventTimeZone": "America/New_York", "location": "Lobby", "startTime": "08:00PM", "In_group_id": " ", "organization": "ACE HOTEL", "eventWebsite": "https://www.acehotel.com/calendar/newyork/lobbynights-dj-michael-cavadias-032218", "eventImage": "https://ace_hotel_dev.s3.amazonaws.com/images/NYC-LOBBYNIGHT-2015-MICHAELCAVADIAS-03.jpg", "ticketUrl": ""},
{"city": "New York", "endTime": "03:00AM", "description": "A crowd-reading master and rocker of international dance floors for almost two decades. Every Saturday this March.", "title": "Lobby Nights: Everybody Random with DJ Rimarkable", "dateFrom": "24/03/2018", "zipCode": "10001", "contactEmail": "no-reply@acehotel.com", "state": "NY", "street": " 20 W 29th Street", "eventTimeZone": "America/New_York", "location": "Lobby", "startTime": "10:00PM", "In_group_id": " ", "organization": "ACE HOTEL", "eventWebsite": "https://www.acehotel.com/calendar/newyork/lobbynights-everybody-random-032418", "eventImage": "https://ace_hotel_dev.s3.amazonaws.com/images/NYC-2018-LOBBY_NIGHTS-RIMARKABLE-02.JPG", "ticketUrl": ""},
{"city": "New York", "endTime": "02:00AM", "description": "DJ Michael Cavadias \u2014a downtown nightlife staple\u2014 brings his eclectic mix every Friday night this month.", "title": "Lobby Nights: DJ MICHAEL CAVADIAS", "dateFrom": "29/03/2018", "zipCode": "10001", "contactEmail": "no-reply@acehotel.com", "state": "NY", "street": " 20 W 29th Street", "eventTimeZone": "America/New_York", "location": "Lobby", "startTime": "08:00PM", "In_group_id": " ", "organization": "ACE HOTEL", "eventWebsite": "https://www.acehotel.com/calendar/newyork/lobbynights-dj-michael-cavadias-032918", "eventImage": "https://ace_hotel_dev.s3.amazonaws.com/images/NYC-LOBBYNIGHT-2015-MICHAELCAVADIAS-02.jpg", "ticketUrl": ""},
{"city": "New York", "endTime": "03:00AM", "description": "A crowd-reading master and rocker of international dance floors for almost two decades. Every Saturday this March.", "title": "Lobby Nights: Everybody Random with DJ Rimarkable", "dateFrom": "31/03/2018", "zipCode": "10001", "contactEmail": "no-reply@acehotel.com", "state": "NY", "street": " 20 W 29th Street", "eventTimeZone": "America/New_York", "location": "Lobby", "startTime": "10:00PM", "In_group_id": " ", "organization": "ACE HOTEL", "eventWebsite": "https://www.acehotel.com/calendar/newyork/lobbynights-everybody-random-033118", "eventImage": "https://ace_hotel_dev.s3.amazonaws.com/images/NYC-2018-LOBBY_NIGHTS-RIMARKABLE-01.jpg", "ticketUrl": ""}
]